{"city": "Pittsburgh", "route": [{"city": "Pittsburgh", "name": "96.120.62.169", "ip": "96.120.62.169", "region": "Pennsylvania", "ISP": "Comcast Cable Communications, LLC", "longitude": "-79.99590", "AS": 7922, "country": "United States", "latitude": "40.44060", "type": "router"}, {"city": "Monroeville", "name": "te-0-5-0-11-sur02.pittsburgh.pa.pitt.comcast.net", "ip": "96.108.132.57", "region": "Pennsylvania", "ISP": "Comcast Cable Communications, LLC", "longitude": "-79.78810", "AS": 7922, "country": "US", "latitude": "40.42120", "type": "router"}, {"city": "Coatesville", "name": "te-0-0-0-0-ar01.mckeesport.pa.pitt.comcast.net", "ip": "68.86.147.109", "region": "Pennsylvania", "ISP": "Comcast Cable Communications, LLC", "longitude": "-75.82670", "AS": 7922, "country": "United States", "latitude": "39.96830", "type": "router"}, {"city": "Chicago", "name": "be-7016-cr02.ashburn.va.ibone.comcast.net", "ip": "68.86.91.25", "region": "Illinois", "ISP": "Comcast Cable Communications, LLC", "longitude": "-87.62980", "AS": 7922, "country": "US", "latitude": "41.87810", "type": "router"}, {"city": "Chicago", "name": "be-10142-pe01.ashburn.va.ibone.comcast.net", "ip": "68.86.86.34", "region": "Illinois", "ISP": "Comcast Cable Communications, LLC", "longitude": "-87.62310", "AS": 7922, "country": "US", "latitude": "41.85290", "type": "router"}, {"city": "Ashburn", "name": "as26769-2.ashburn.va.ibone.comcast.net", "ip": "75.149.229.98", "region": "Virginia", "ISP": "Comcast Cable Communications, LLC", "longitude": "-77.48740", "AS": 7922, "country": "US", "latitude": "39.04380", "type": "router"}, {"city": "Ashburn", "name": "az.cmu-agens.com", "ip": "72.21.81.200", "region": "Virginia", "ISP": "MCI Communications Services, Inc. d/b/a Verizon Business", "longitude": "-77.53900", "AS": 15133, "country": "United States", "latitude": "39.01800", "type": "server"}], "name": "Chen.local", "ip": "71.206.236.67", "region": "Pennsylvania", "ISP": "Comcast Cable Communications, LLC", "longitude": "-79.99590", "server": {"city": "Ashburn", "name": "72.21.81.200", "ip": "72.21.81.200", "region": "Virginia", "ISP": "MCI Communications Services, Inc. d/b/a Verizon Business", "longitude": "-77.53900", "AS": 15133, "country": "United States", "latitude": "39.01800", "type": "server"}, "device": {"device": "Phone", "player": "v1.0", "os": "Microsoft Windows 8", "browser": "app"}, "AS": 7922, "country": "US", "latitude": "40.44060", "type": "client", "id": "Chen.local_1128051312"}